[
  {
    "id": "1",
    "name": "Robert Brim",
    "address": "650 W 41 St.",
    "postcode": "V5Z 2M9",
    "Phone": "16041234567",
    "email": "rob.brim4959@aim.com",
    "city": "Vancouver",
    "prov": "BC",
    "country": "Canada",
    "lat": "49.2328589",
    "lng": "-123.1170634",
    "postingdate": 1625158995000,
    "monthlyPayment": 3000,
    "rating": 100,
    "reviews": [
      {
        "id": 1,
        "rating": 100,
        "text": "Really great place",
        "name": "John Doe",
        "timestamp": 1625158995000
      }
    ]
  },
  {
    "id": "2",
    "name": "Samantha Rych",
    "address": "3195 Oak St.",
    "postcode": "V6H 2L2",
    "Phone": "16043214321",
    "email": "samatha.rych495@aol.com",
    "city": "Vancouver",
    "province": "BC",
    "country": "Canada",
    "lat": "49.2572939",
    "lng": "-123.1297311",
    "postingdate": 1625258995000,
    "monthlyPayment": 2000,
    "rating": 50,
    "reviews": [
      {
        "id": 1,
        "rating": 50,
        "text": "great place",
        "name": "Bobby Mah",
        "timestamp": 1625158995000
      },
      {
        "id": "609eae20-c06a-41b0-8b55-0ad28f47edd1",
        "rating": 85,
        "text": "Roaches everywhere! beware but I cooked them and tasted yummy. great work",
        "name": "Bob Hamilton",
        "timestamp": 1656566727772
      }
    ]
  }
]
